,City,Lat,Lng,Max Temp,Humidity,Cloudiness,Wind Speed,Country,Date
0,Saint-Philippe,-21.3585,55.7679,69.35,78,26,9.69,RE,1633665460
1,Qaanaaq,77.484,-69.3632,22.3,66,100,6.15,GL,1633665462
2,Vanimo,-2.6741,141.3028,87.67,62,34,9.46,PG,1633665463
3,Gamba,-2.65,10.0,75.69,88,100,4.9,GA,1633665464
4,Puerto Ayora,-0.7393,-90.3518,68.56,95,93,8.01,EC,1633665466
5,Tasiilaq,65.6145,-37.6368,24.03,51,17,7.78,GL,1633665468
6,Faanui,-16.4833,-151.75,78.98,71,12,6.11,PF,1633665469
7,Dhemāji,27.4833,94.5833,89.67,73,6,3.02,IN,1633665470
8,Atuona,-9.8,-139.0333,77.95,79,24,16.87,PF,1633665472
9,Mataura,-46.1927,168.8643,55.47,70,100,6.11,NZ,1633665473
10,Bluff,-46.6,168.3333,55.8,89,100,14.34,NZ,1633665089
11,Provideniya,64.3833,-173.3,35.71,80,90,20.13,RU,1633665476
12,Chokurdakh,70.6333,147.9167,16.27,86,89,6.91,RU,1633665477
13,Dunedin,-45.8742,170.5036,58.8,67,61,8.01,NZ,1633665479
14,Nelson Bay,-32.7167,152.15,73.76,63,96,9.4,AU,1633665480
15,Nikolskoye,59.7035,30.7861,50.4,67,100,6.69,RU,1633665482
16,Hobyo,5.3505,48.5268,78.3,78,79,18.25,SO,1633665483
17,Spruce Grove,53.5334,-113.9187,44.11,60,40,0.0,CA,1633665485
18,Hermanus,-34.4187,19.2345,55.9,78,0,8.46,ZA,1633665486
19,Saskylakh,71.9167,114.0833,10.27,90,90,6.87,RU,1633665487
20,Asilah,35.465,-6.0348,71.46,79,40,6.51,MA,1633665489
21,Rikitea,-23.1203,-134.9692,73.78,74,19,9.93,PF,1633665209
22,Busselton,-33.65,115.3333,62.1,59,97,11.54,AU,1633665493
23,Belmonte,-15.8631,-38.8828,73.9,89,8,5.48,BR,1633665494
24,Sitka,57.0531,-135.33,42.93,92,100,4.7,US,1633665495
25,Bloomingdale,27.8936,-82.2404,79.86,95,75,3.44,US,1633665497
26,Klaksvík,62.2266,-6.589,52.72,87,99,19.77,FO,1633665498
27,Cayenne,4.9333,-52.3333,82.09,81,0,1.99,GF,1633665501
28,Albany,42.6001,-73.9662,58.37,94,28,1.95,US,1633665502
29,Punta Arenas,-53.15,-70.9167,44.71,65,0,13.8,CL,1633665405
30,Bredasdorp,-34.5322,20.0403,52.75,77,0,4.25,ZA,1633665506
31,Arman',59.7,150.1667,35.4,46,48,4.88,RU,1633665507
32,Kaitangata,-46.2817,169.8464,55.06,74,93,8.52,NZ,1633664945
33,Rawson,-43.3002,-65.1023,47.03,79,0,8.5,AR,1633665510
34,Talnakh,69.4865,88.3972,33.08,100,100,4.88,RU,1633665511
35,Leningradskiy,69.3833,178.4167,25.88,98,100,2.24,RU,1633665513
36,Zvishavane,-20.3267,30.0665,61.75,84,70,2.82,ZW,1633665515
37,Seydi,39.4816,62.9137,53.65,16,100,10.0,TM,1633665516
38,Mahébourg,-20.4081,57.7,70.25,88,40,3.44,MU,1633665518
39,Ushuaia,-54.8,-68.3,46.06,46,75,12.66,AR,1633665519
40,Port Alfred,-33.5906,26.891,67.35,69,100,10.27,ZA,1633665520
41,Dikson,73.5069,80.5464,30.85,80,100,14.29,RU,1633665522
42,Airai,-8.9266,125.4092,83.52,27,41,6.22,TL,1633665523
43,Xai-Xai,-25.0519,33.6442,65.88,72,99,8.52,MZ,1633665525
44,Valparaíso,-33.0393,-71.6273,57.47,74,90,6.91,CL,1633665526
45,Mumford,5.2618,-0.759,76.86,88,45,2.8,GH,1633665528
46,Rondonópolis,-16.4708,-54.6356,78.4,78,60,2.98,BR,1633665529
47,Ozinki,51.1786,49.6769,39.02,53,0,4.47,RU,1633665532
48,Cape Town,-33.9258,18.4232,59.09,62,75,14.97,ZA,1633665299
49,Vaini,-21.2,-175.2,82.56,89,20,8.05,TO,1633665534
50,Tulsīpur,28.131,82.2973,79.77,68,11,3.51,NP,1633665536
51,Atikokan,48.7555,-91.6216,60.17,78,100,5.06,CA,1633665537
52,Bengkulu,-3.8004,102.2655,83.07,70,40,7.4,ID,1633665539
53,The Valley,18.217,-63.0578,84.06,75,26,20.45,AI,1633665540
54,Jamestown,42.097,-79.2353,66.85,93,99,1.01,US,1633665541
55,New Norfolk,-42.7826,147.0587,67.5,50,94,7.0,AU,1633665543
56,Poum,-20.2333,164.0167,73.13,68,17,5.91,NC,1633665544
57,Lagoa,39.05,-27.9833,68.11,74,8,8.63,PT,1633665545
58,Muroto-misakicho,33.2833,134.15,82.44,65,45,8.21,JP,1633665547
59,Yellowknife,62.456,-114.3525,36.41,100,90,3.0,CA,1633665548
60,Ayan,56.45,138.1667,45.63,39,10,12.95,RU,1633665550
61,Esperance,-33.8667,121.9,62.44,55,87,15.05,AU,1633665551
62,Monrovia,6.3005,-10.7969,76.77,87,99,7.81,LR,1633665508
63,Upernavik,72.7868,-56.1549,24.84,48,38,4.16,GL,1633665554
64,Hithadhoo,-0.6,73.0833,83.37,65,92,8.08,MV,1633665555
65,Abū Zabad,12.35,29.25,76.08,27,81,6.22,SD,1633665557
66,Atar,20.5169,-13.0499,87.85,10,53,7.4,MR,1633665558
67,Bambous Virieux,-20.3428,57.7575,71.22,88,40,3.44,MU,1633665559
68,Asău,46.4333,26.4,36.75,71,100,4.43,RO,1633665561
69,Lüderitz,-26.6481,15.1594,55.26,77,0,8.05,NA,1633665562
70,Doha,25.2867,51.5333,87.78,70,0,4.61,QA,1633665365
71,Cabo San Lucas,22.8909,-109.9124,86.5,60,0,6.08,MX,1633665565
72,Strezhevoy,60.7333,77.5889,40.98,89,100,11.25,RU,1633665566
73,Luena,-11.7833,19.9167,64.33,62,4,2.8,AO,1633665568
74,Ţahţā,26.7693,31.5021,66.31,49,0,8.32,EG,1633665569
75,Lindi,-10.0,39.7167,71.04,84,59,6.58,TZ,1633665570
76,Cherskiy,68.75,161.3,10.29,95,29,0.74,RU,1633665572
77,Saint Anthony,45.0205,-93.218,66.34,87,90,3.44,US,1633665573
78,George Town,5.4112,100.3354,85.95,84,20,1.01,MY,1633665575
79,East London,-33.0153,27.9116,65.79,83,100,7.61,ZA,1633665576
80,Lebu,-37.6167,-73.65,47.52,89,1,7.9,CL,1633665578
81,Lompoc,34.6391,-120.4579,63.57,90,90,3.44,US,1633665579
82,Tabou,4.423,-7.3528,76.98,89,99,5.12,CI,1633665580
83,Tiksi,71.6872,128.8694,23.92,83,100,19.28,RU,1633665582
84,Kapaa,22.0752,-159.319,77.11,71,71,4.0,US,1633665584
85,Hong Kong,22.2855,114.1577,79.95,96,100,1.01,HK,1633665425
86,Saint Paul Harbor,57.79,-152.4072,45.3,86,100,10.0,US,1633665587
87,Hambantota,6.1241,81.1185,84.54,89,20,12.66,LK,1633665588
88,Vestmanna,62.1564,-7.1664,50.92,100,90,13.8,FO,1633665590
89,Hilo,19.7297,-155.09,75.79,91,92,1.01,US,1633665485
90,Benghazi,32.1167,20.0667,73.94,60,0,2.17,LY,1633665592
91,Ancud,-41.8697,-73.8203,46.42,91,1,3.11,CL,1633665594
92,Kavaratti,10.5669,72.642,82.29,77,42,8.75,IN,1633665595
93,Yeppoon,-23.1333,150.7333,87.58,51,17,10.54,AU,1633665597
94,Cockburn Town,21.4612,-71.1419,83.03,75,2,17.27,TC,1633665599
95,Bilibino,68.0546,166.4372,10.67,93,73,3.0,RU,1633665601
96,Hobart,-42.8794,147.3294,67.86,49,75,9.22,AU,1633665605
97,Hualmay,-11.0964,-77.6139,62.04,91,96,12.35,PE,1633665607
98,College,64.8569,-147.8028,37.58,97,90,4.61,US,1633665416
99,Skjervøy,70.0311,20.9714,41.34,65,100,15.68,NO,1633665611
100,Torbay,47.6666,-52.7314,50.76,79,100,4.0,CA,1633665616
101,São João da Barra,-21.6403,-41.0511,70.0,84,100,18.32,BR,1633665620
102,Clyde River,70.4692,-68.5914,29.26,84,97,3.98,CA,1633665623
103,Soyo,-6.1349,12.3689,75.74,87,97,8.9,AO,1633665626
104,Lata,40.1629,-8.3327,60.82,54,12,3.15,PT,1633665631
105,Plettenberg Bay,-34.0527,23.3716,59.79,72,9,3.09,ZA,1633665632
106,Castro,-24.7911,-50.0119,53.49,98,100,9.04,BR,1633665499
107,Ürümqi,43.801,87.6005,36.55,56,40,2.24,CN,1633665613
108,Hamilton,39.1834,-84.5333,70.65,95,75,3.44,US,1633665637
109,Miandrivazo,-19.5167,45.4667,77.65,46,1,6.82,MG,1633665638
110,Sistranda,63.7256,8.834,53.91,92,100,13.69,NO,1633665640
111,Tupelo,34.2576,-88.7034,68.25,88,96,0.76,US,1633665641
112,Carnarvon,-24.8667,113.6333,70.9,53,0,23.33,AU,1633665643
113,Te Anau,-45.4167,167.7167,48.99,91,100,2.86,NZ,1633665644
114,Sokoto,13.0609,5.239,80.22,53,60,5.35,NG,1633665646
115,Antalaha,-14.9003,50.2788,72.45,78,100,3.06,MG,1633665647
116,Khatanga,71.9667,102.5,21.87,95,100,3.94,RU,1633665648
117,Katsuura,35.1333,140.3,82.51,75,55,11.59,JP,1633665650
118,Tubmanburg,6.8708,-10.8172,73.63,97,90,2.01,LR,1633665652
119,Fortuna,40.5982,-124.1573,52.93,51,36,1.99,US,1633665653
120,Portland,45.5234,-122.6762,52.61,81,57,1.01,US,1633665433
121,Malye Derbety,47.9547,44.6808,37.69,39,0,10.63,RU,1633665656
122,Mossamedes,-15.1961,12.1522,65.07,72,66,7.76,AO,1633665658
123,Ribeira Grande,38.5167,-28.7,69.17,73,9,8.1,PT,1633665659
124,San Policarpo,12.1791,125.5072,76.82,92,100,16.35,PH,1633665661
125,Laguna de Duero,41.5815,-4.7233,49.95,76,0,3.44,ES,1633665662
126,Sola,-13.8833,167.55,80.65,79,26,18.54,VU,1633665664
127,Calvinia,-31.4707,19.776,44.8,53,0,2.15,ZA,1633665665
128,Thompson,55.7435,-97.8558,37.56,93,1,0.0,CA,1633665667
129,Huntington,38.4193,-82.4452,67.77,96,72,4.16,US,1633665583
130,Luwuk,-0.9516,122.7875,86.94,65,30,6.96,ID,1633665669
131,Rockhampton,-23.3833,150.5,87.69,33,40,5.75,AU,1633665672
132,Kruisfontein,-34.0033,24.7314,58.89,60,98,8.37,ZA,1633665090
133,Husavik,66.0449,-17.3389,42.75,97,100,4.7,IS,1633665675
134,Saint George,37.1041,-113.5841,71.94,48,1,5.99,US,1633665676
135,La Asuncion,11.0333,-63.8628,82.13,83,49,9.22,VE,1633665678
136,Ovsyanka,55.9575,92.5519,38.37,96,100,8.9,RU,1633665679
137,Arraial do Cabo,-22.9661,-42.0278,68.79,74,99,16.08,BR,1633665604
138,Katangli,51.7102,143.2326,49.68,49,98,9.75,RU,1633665682
139,Oranjemund,-28.55,16.4333,51.93,94,42,1.12,NA,1633665683
140,Fairbanks,64.8378,-147.7164,38.1,97,90,4.61,US,1633665602
141,Anbu,23.449,116.6809,78.82,83,100,15.9,CN,1633665686
142,Las Palmas,28.4204,-14.0131,68.79,78,9,11.5,ES,1633665688
143,Vaitape,-16.5167,-151.75,78.96,71,11,6.04,PF,1633665689
144,Brae,60.3964,-1.353,51.71,93,35,9.31,GB,1633665691
145,Adrar,20.5022,-10.0711,85.46,9,94,8.63,MR,1633665692
146,Zhicheng,30.2956,111.5047,66.07,66,100,4.65,CN,1633665694
147,Coquimbo,-29.9533,-71.3436,53.28,85,100,6.96,CL,1633665695
148,Salinas,36.6777,-121.6555,58.41,73,75,5.75,US,1633665696
149,Mount Gambier,-37.8333,140.7667,64.31,48,75,20.71,AU,1633665698
150,Derventa,44.9772,17.9103,50.09,88,100,16.67,BA,1633665700
151,Tavira,37.1273,-7.6486,66.07,53,51,5.12,PT,1633665684
152,Bandarbeyla,9.4942,50.8122,80.13,76,8,16.44,SO,1633665702
153,Umeå,63.8284,20.2597,31.93,100,0,1.14,SE,1633665704
154,Saldanha,-33.0117,17.9442,59.52,76,59,14.67,ZA,1633665708
155,Yumen,40.2833,97.2,45.57,37,81,10.07,CN,1633665709
156,Carutapera,-1.195,-46.02,78.94,81,9,7.02,BR,1633665711
157,Hohhot,40.8106,111.6522,57.33,56,100,5.06,CN,1633665712
158,Bethel,41.3712,-73.414,62.04,92,21,1.41,US,1633665713
159,Port Augusta,-32.5,137.7667,77.7,14,0,11.18,AU,1633665715
160,Laguna,38.421,-121.4238,65.25,68,90,3.0,US,1633665716
161,Barrow,71.2906,-156.7887,32.02,80,90,10.36,US,1633665718
162,São Filipe,14.8961,-24.4956,79.07,78,21,6.58,CV,1633665719
163,Verkhnyaya Inta,65.9811,60.3094,40.62,87,100,28.57,RU,1633665721
164,Pevek,69.7008,170.3133,24.04,82,91,5.86,RU,1633665722
165,North Bend,43.4065,-124.2243,48.94,97,28,8.43,US,1633665723
166,Mayo,38.8876,-76.5119,68.95,93,61,6.6,US,1633665725
167,Dhidhdhoo,6.8833,73.1,82.51,80,29,17.0,MV,1633665727
168,Stykkisholmur,65.0757,-22.7297,42.78,90,100,21.7,IS,1633665606
169,La Ronge,55.1001,-105.2842,43.36,51,7,5.68,CA,1633665730
170,Half Moon Bay,37.4636,-122.4286,58.33,78,90,9.22,US,1633665560
171,Westport,41.1415,-73.3579,65.98,94,40,1.99,US,1633665106
172,Sakakah,29.9697,40.2064,70.54,28,0,11.1,SA,1633665733
173,Inuvik,68.3499,-133.7218,22.96,92,100,1.12,CA,1633665735
174,Umm Kaddadah,13.6017,26.6876,82.24,17,82,14.23,SD,1633665736
175,Verkh-Usugli,52.7,115.1667,43.32,35,90,8.5,RU,1633665738
176,Comodoro Rivadavia,-45.8667,-67.5,51.19,58,15,16.06,AR,1633665739
177,Oruzgan,32.8333,66.0,68.34,14,0,3.47,AF,1633665741
178,Aklavik,68.2191,-135.0107,26.69,85,100,5.19,CA,1633665742
179,Tuatapere,-46.1333,167.6833,55.81,86,98,1.52,NZ,1633665744
180,Ponta do Sol,32.6667,-17.1,69.71,76,90,2.26,PT,1633665745
181,Constitución,-35.3333,-72.4167,48.92,92,2,8.75,CL,1633665656
182,Alofi,-19.0595,-169.9187,77.97,78,47,11.39,NU,1633665748
183,Mossendjo,-2.9506,12.7261,70.07,98,100,1.92,CG,1633665749
184,Sisimiut,66.9395,-53.6735,29.32,61,9,6.89,GL,1633665751
185,Agüimes,27.9054,-15.4461,69.01,74,75,16.11,ES,1633665752
186,Mar del Plata,-38.0023,-57.5575,49.87,80,1,1.01,AR,1633665754
187,Damaturu,11.747,11.9608,78.35,30,66,4.65,NG,1633665755
188,Banda Aceh,5.5577,95.3222,85.73,64,100,14.65,ID,1633665757
189,Puerto Escondido,15.85,-97.0667,80.29,82,100,4.36,MX,1633665758
190,Ukiah,39.1502,-123.2078,59.04,71,1,0.0,US,1633665760
191,Solnechnyy,50.7214,136.6319,51.37,33,19,11.36,RU,1633665762
192,Rocha,-34.4833,-54.3333,40.14,88,2,0.98,UY,1633665763
193,Elizabeth City,36.2946,-76.2511,72.01,92,90,9.22,US,1633665764
194,Saint-Joseph,-21.3667,55.6167,68.36,79,32,8.3,RE,1633665766
195,Lorengau,-2.0226,147.2712,85.5,66,75,11.03,PG,1633665767
196,Hay River,60.8156,-115.7999,36.81,81,4,4.99,CA,1633665640
197,Butaritari,3.0707,172.7902,82.63,68,21,11.86,KI,1633665770
198,Alugan,12.2188,125.4808,76.62,92,100,15.9,PH,1633665771
199,Petropavlovsk-Kamchatskiy,53.0452,158.6483,50.59,32,40,15.66,RU,1633665773
200,Margate,51.3813,1.3862,60.04,93,100,6.96,GB,1633665689
201,Nhulunbuy,-12.2333,136.7667,88.41,55,20,11.5,AU,1633665776
202,Honolulu,21.3069,-157.8583,81.86,66,90,3.0,US,1633665403
203,Pindiga,9.9833,10.9333,72.7,90,89,2.44,NG,1633665778
204,Maamba,-17.3667,27.15,69.85,50,2,6.17,ZM,1633665779
205,Dubbo,-32.25,148.6167,73.53,28,56,11.5,AU,1633665782
206,Chifeng,42.2683,118.9636,61.5,34,2,6.6,CN,1633665784
207,Berbérati,4.2612,15.7922,68.79,99,100,2.35,CF,1633665785
208,Vientiane,17.9667,102.6,89.55,80,75,6.91,LA,1633665600
209,Linxia Chengguanzhen,35.6003,103.2064,60.84,53,87,4.5,CN,1633665788
210,Lushoto,-4.7833,38.2833,59.32,80,5,2.66,TZ,1633665789
211,Severo-Kuril'sk,50.6789,156.125,48.58,77,100,20.69,RU,1633665790
212,Basoko,1.2391,23.616,71.62,91,47,3.4,CD,1633665792
213,Avarua,-21.2078,-159.775,77.05,69,78,4.61,CK,1633665793
214,Zapolyarnyy,69.4154,30.8136,33.08,90,29,23.42,RU,1633665795
215,Vestmannaeyjar,63.4427,-20.2734,49.55,81,78,23.02,IS,1633665796
216,Ust'-Ilimsk,58.0006,102.6619,34.74,96,100,8.21,RU,1633665798
217,Deputatsky,69.3,139.9,23.81,68,100,6.51,RU,1633665774
218,Okulovka,58.4008,33.2908,34.83,81,20,6.04,RU,1633665800
219,Borogontsy,62.6683,131.1683,34.45,84,100,5.88,RU,1633665802
220,Codrington,-38.2667,141.9667,64.54,54,100,14.94,AU,1633665803
221,Bonavista,48.6499,-53.1147,50.11,64,100,4.76,CA,1633665805
222,Darnah,32.767,22.6367,71.49,55,0,10.56,LY,1633665806
223,Batagay,67.6333,134.6333,32.5,61,100,12.73,RU,1633665808
224,Acapulco de Juárez,16.8634,-99.8901,81.18,83,86,4.25,MX,1633665540
225,Ihosy,-22.4,46.1167,57.29,78,82,13.76,MG,1633665810
226,Sabang,5.8933,95.3214,82.72,76,97,21.9,ID,1633665812
227,Yulara,-25.2406,130.9889,87.64,20,0,9.22,AU,1633665813
228,Grand Gaube,-20.0064,57.6608,71.38,77,60,1.99,MU,1633665814
229,Souillac,-20.5167,57.5167,71.37,73,31,5.17,MU,1633665817
230,Oriximiná,-1.7656,-55.8661,80.13,71,79,2.24,BR,1633665819
231,Moroni,-11.7022,43.2551,75.0,79,61,13.35,KM,1633665808
232,Tuktoyaktuk,69.4541,-133.0374,30.18,75,26,6.02,CA,1633665821
233,Gusau,12.1628,6.6614,77.23,53,81,3.65,NG,1633665823
234,Shimoda,34.6667,138.95,80.1,70,60,6.98,JP,1633665824
235,La Concordia,13.1953,-86.1667,67.1,97,100,4.45,NI,1633665827
236,Narsaq,60.9167,-46.05,43.02,49,78,7.47,GL,1633665829
237,Mango,27.9797,-82.3065,80.02,94,75,0.0,US,1633665830
238,Yueyang,29.3333,113.0919,66.99,73,96,11.25,CN,1633665832
239,Cap Malheureux,-19.9842,57.6142,71.47,77,58,1.99,MU,1633665833
240,Mareeba,-17.0,145.4333,88.45,47,11,11.72,AU,1633665834
241,Portobelo,9.55,-79.65,77.74,87,97,5.59,PA,1633665837
242,Kununurra,-15.7667,128.7333,102.18,18,81,4.61,AU,1633665839
243,Darien,41.752,-87.974,66.63,94,90,0.0,US,1633665840
244,Mezen',65.8522,44.24,40.59,95,100,14.41,RU,1633665841
245,San Patricio,28.017,-97.5169,78.89,58,0,6.73,US,1633665759
246,Hofn,64.2539,-15.2082,48.96,91,100,25.72,IS,1633665844
247,Geraldton,-28.7667,114.6,70.21,60,75,19.57,AU,1633665847
248,Kiryat Gat,31.61,34.7642,69.4,68,0,3.38,IL,1633665782
249,Kinshasa,-4.3246,15.3215,75.52,94,40,0.0,CD,1633665850
250,Hackettstown,40.854,-74.8291,63.61,88,76,0.0,US,1633665851
251,Richards Bay,-28.783,32.0377,66.88,83,100,15.46,ZA,1633665727
252,Mehamn,71.0357,27.8492,39.38,81,40,18.41,NO,1633665854
253,Karabash,55.4808,60.2157,37.31,77,6,6.22,RU,1633665855
254,Jaicós,-7.3592,-41.1378,77.16,42,78,3.49,BR,1633665856
255,Umluj,25.0213,37.2685,82.31,51,0,10.76,SA,1633665858
256,Hervey Bay,-25.2986,152.8535,82.04,65,0,14.72,AU,1633665861
257,Vernon,50.2581,-119.2691,47.44,58,72,7.0,CA,1633665642
258,Fort Smith,35.3859,-94.3986,69.35,78,7,1.99,US,1633665599
259,Kavieng,-2.5744,150.7967,84.33,68,86,2.66,PG,1633665866
260,Zapotiltic,19.6167,-103.4333,64.31,86,95,3.2,MX,1633665868
261,Praxédis Guerrero,31.3667,-106.0167,77.74,28,48,3.69,MX,1633665871
262,Saravan,39.7196,45.6483,34.45,69,4,2.21,AM,1633665872
263,Santo Tomas,14.1079,121.1414,88.56,60,95,3.13,PH,1633665874
264,Tianpeng,30.9866,103.9393,62.29,80,100,4.65,CN,1633665875
265,Kumul,42.8,93.45,37.76,68,100,10.74,CN,1633665877
266,Bud,39.447,-86.1758,66.18,97,46,2.53,US,1633665879
267,Ternate,0.8,127.4,84.4,72,99,9.48,ID,1633665880
268,Bathsheba,13.2167,-59.5167,83.01,78,75,21.85,BB,1633665883
269,Gemeente Terneuzen,51.2809,3.8392,50.99,87,78,3.62,NL,1633665885
270,Linjiang,41.8069,126.9078,65.41,48,0,1.25,CN,1633665886
271,Rincon,32.296,-81.2354,77.86,96,75,4.61,US,1633665888
272,Berdigestyakh,62.0989,126.6992,35.33,77,100,10.31,RU,1633665889
273,Stevenage,51.9022,-0.2026,59.79,96,90,1.99,GB,1633665716
274,Grindavik,63.8424,-22.4338,48.67,100,90,27.63,IS,1633665892
275,Forsytheganj,52.6333,29.7333,34.32,66,0,5.99,BY,1633665894
276,Ayorou,14.7308,0.9174,85.93,14,21,9.69,NE,1633665895
277,Camapuã,-19.5314,-54.0439,71.2,84,97,4.0,BR,1633665897
278,Faya,18.3851,42.4509,64.92,63,23,6.78,SA,1633665788
279,San Quintín,30.4833,-115.95,67.21,83,100,13.06,MX,1633665746
280,Ranong,9.9658,98.6348,78.04,92,100,12.57,TH,1633665902
281,West Bay,19.3667,-81.4167,84.0,85,77,1.01,KY,1633665903
282,Baie-Comeau,49.2168,-68.1489,57.09,77,75,18.41,CA,1633665905
283,Sechura,-5.5569,-80.8222,64.81,83,67,14.88,PE,1633665906
284,Maltahöhe,-24.8333,16.9833,51.57,24,0,2.75,NA,1633665908
285,Talas,38.6908,35.5538,30.87,86,0,1.14,TR,1633665909
286,Coyhaique,-45.5752,-72.0662,42.75,87,0,2.3,CL,1633665912
287,Beringovskiy,63.05,179.3167,33.28,90,100,9.91,RU,1633665913
288,Port Hedland,-20.3167,118.5667,86.05,37,0,12.66,AU,1633665783
289,Celestún,20.8667,-90.4,78.94,86,99,8.41,MX,1633665916
290,Cedar City,37.6775,-113.0619,57.4,59,42,7.34,US,1633665655
291,Beira,-19.8436,34.8389,73.49,64,20,12.66,MZ,1633665918
292,Freeport,40.6576,-73.5832,66.96,79,1,1.99,US,1633665653
293,Ostrovnoy,68.0531,39.5131,35.91,81,84,25.43,RU,1633665921
294,Itarema,-2.9248,-39.9167,78.82,83,100,11.14,BR,1633665923
295,Fallon,39.4735,-118.7774,61.29,59,90,5.75,US,1633665751
296,Bull Savanna,17.8868,-77.5902,76.46,86,18,4.03,JM,1633665926
297,Lakes Entrance,-37.8811,147.981,70.57,54,93,10.27,AU,1633665928
298,Flin Flon,54.7682,-101.865,42.78,48,52,4.47,CA,1633665929
299,Shaunavon,49.6501,-108.4181,48.22,67,100,5.41,CA,1633665931
300,Ferrol,43.4832,-8.2369,62.67,84,80,2.1,ES,1633665932
301,Ahipara,-35.1667,173.1667,61.59,74,2,9.37,NZ,1633665934
302,Concordia,-31.393,-58.0209,52.79,75,5,3.0,AR,1633665935
303,Knysna,-34.0363,23.0471,59.67,74,0,2.24,ZA,1633665937
304,Pisco,-13.7,-76.2167,62.65,82,46,12.66,PE,1633665938
305,Saint-Augustin,51.226,-58.6502,39.65,67,17,11.72,CA,1633665939
306,Macia,-25.0269,33.0989,65.98,72,100,6.04,MZ,1633665941
307,Port Blair,11.6667,92.75,76.66,95,100,16.89,IN,1633665818
308,Buritizeiro,-17.3511,-44.9622,76.73,70,54,6.31,BR,1633665656
309,Raudeberg,61.9875,5.1352,58.19,80,100,7.0,NO,1633665945
310,Salalah,17.0151,54.0924,82.49,78,20,2.3,OM,1633665946
311,Nome,64.5011,-165.4064,37.17,94,100,9.53,US,1633665662
312,Cidreira,-30.1811,-50.2056,59.63,66,3,8.3,BR,1633665949
313,Verkhnevilyuysk,63.4453,120.3167,32.94,59,91,5.57,RU,1633665950
314,Paraná,-31.732,-60.5238,56.55,54,1,9.69,AR,1633665952
315,Carupano,10.6678,-63.2585,78.06,90,81,6.22,VE,1633665953
316,Demba,-5.51,22.2667,72.64,72,90,1.3,CD,1633665955
317,Chui,-33.6971,-53.4616,46.44,80,3,4.18,UY,1633665808
318,Sørland,67.667,12.6934,44.33,71,100,21.21,NO,1633665958
319,Gimli,50.6336,-96.9907,69.06,65,100,13.44,CA,1633665959
320,Nantucket,41.2835,-70.0995,63.97,82,1,4.61,US,1633665726
321,Elko,41.0002,-115.5012,50.02,82,54,10.0,US,1633665964
322,Aksarka,66.5606,67.7975,44.33,82,100,22.3,RU,1633665965
323,Aksha,50.2814,113.2867,40.53,86,100,2.08,RU,1633665967
324,Poso,-1.3959,120.7524,88.52,61,25,7.05,ID,1633665968
325,Burg,51.8333,14.15,52.25,90,5,6.17,DE,1633665970
326,Aykhal,66.0,111.5,25.59,82,97,15.32,RU,1633665971
327,Puerto Carreño,6.189,-67.4859,76.1,91,98,10.25,CO,1633665973
328,Maceió,-9.6658,-35.7353,74.64,94,75,2.3,BR,1633665974
329,Kapit,2.0167,112.9333,90.45,56,92,2.33,MY,1633665977
330,Port-Cartier,50.0334,-66.8654,48.74,72,99,7.7,CA,1633665749
331,Islamkot,24.6997,70.177,88.92,49,34,9.22,PK,1633665979
332,Mabaruma,8.2,-59.7833,75.51,93,12,2.3,GY,1633665981
333,Pemangkat,1.1667,108.9667,82.4,76,64,10.76,ID,1633665983
334,Pascagoula,30.3658,-88.5561,73.42,100,1,0.0,US,1633665985
335,Ol'ga,43.7444,135.2892,65.32,37,1,5.97,RU,1633665986
336,Kingman,35.1894,-114.053,76.48,59,1,5.75,US,1633665854
337,Alyangula,-13.8483,136.4192,85.68,64,89,11.48,AU,1633665989
338,Kampene,-3.6,26.6667,67.48,91,57,1.9,CD,1633665990
339,San Cristobal,7.7669,-72.225,69.98,95,99,1.86,VE,1633665992
340,Saquena,-4.6667,-73.5167,73.13,92,35,2.71,PE,1633665993
341,Caravelas,-17.7125,-39.2481,74.64,83,100,3.06,BR,1633665995
342,Auki,-8.7676,160.7034,87.26,65,29,7.16,SB,1633665996
343,Krasnyy,54.5678,31.4333,33.26,72,0,3.44,RU,1633665998
344,Zyryanka,65.75,150.85,29.95,50,19,10.94,RU,1633665999
345,Gbarnga,6.9956,-9.4722,70.39,100,86,1.9,LR,1633666001
346,Ardmore,34.1743,-97.1436,76.64,65,1,3.0,US,1633666002
347,Port Elizabeth,-33.918,25.5701,66.49,52,0,12.66,ZA,1633666004
348,Sirte,31.2089,16.5887,74.68,74,1,8.34,LY,1633666005
349,Puerto Cabezas,14.0351,-83.3888,76.86,91,100,8.39,NI,1633666006
350,Saravena,6.9538,-71.8752,71.22,98,85,3.53,CO,1633666008
351,Necochea,-38.5473,-58.7368,43.25,74,0,9.22,AR,1633666009
352,Devarkonda,16.7,78.9333,83.08,71,74,4.61,IN,1633666011
353,Loreto,22.2667,-101.9667,60.01,68,3,10.13,MX,1633666013
354,Kargasok,59.0556,80.8572,42.22,83,100,11.81,RU,1633666016
355,Gweta,-20.1833,25.2333,75.36,41,63,9.4,BW,1633666017
356,Indianola,41.3581,-93.5574,67.66,88,100,3.96,US,1633666019
357,Batemans Bay,-35.7167,150.1833,75.2,56,67,12.59,AU,1633666020
358,Pangnirtung,66.1451,-65.7125,33.51,85,42,0.72,CA,1633666022
359,Kapuskasing,49.4169,-82.4331,54.82,90,0,4.36,CA,1633665973
360,Parabel',58.6978,81.4825,41.83,86,100,10.16,RU,1633666025
361,Ambon City,-3.6954,128.1814,86.14,79,40,6.91,ID,1633666026
362,Darovskoy,58.77,47.9564,36.21,88,6,7.92,RU,1633666028
363,Qafqafā,32.3483,35.9395,61.95,26,0,3.2,JO,1633666030
364,San Miguel de Cozumel,20.5083,-86.9458,82.99,88,40,4.0,MX,1633665960
365,Kingstown,13.1587,-61.2248,81.39,79,98,16.96,VC,1633666033
366,Ilulissat,69.2167,-51.1,24.82,42,6,3.44,GL,1633666034
367,Berbera,10.4396,45.0143,87.4,70,63,2.28,SO,1633666036
368,Seaford,50.7714,0.1027,60.1,95,100,1.01,GB,1633666037
369,Buraidah,26.326,43.975,77.72,21,0,5.1,SA,1633665786
370,Vallenar,-28.5708,-70.7581,50.43,85,32,2.57,CL,1633666039
371,Labuhan,-6.8844,112.2051,90.57,47,0,3.62,ID,1633666041
372,Chingirlau,51.095,54.0814,40.14,52,13,5.12,KZ,1633666042
373,Porto-Novo,6.4965,2.6036,76.53,87,85,2.8,BJ,1633666044
374,Baykit,61.67,96.37,38.03,93,100,4.88,RU,1633666045
375,Santa Cruz de la Sierra,-17.8,-63.1667,73.74,58,33,3.89,BO,1633665795
376,Vieques,18.425,-65.8329,82.9,83,40,6.91,PR,1633666048
377,Roald,62.5833,6.1333,59.32,82,90,17.27,NO,1633666049
378,Burnie,-41.0667,145.9167,53.94,86,100,15.39,AU,1633666051
379,Conceição da Barra,-18.5933,-39.7322,73.98,83,100,10.63,BR,1633666052
380,Sept-Îles,50.2001,-66.3821,49.05,82,90,5.01,CA,1633665867
381,Qingdao,36.0986,120.3719,64.04,82,100,5.99,CN,1633665834
382,Carlsbad,33.1581,-117.3506,69.64,87,20,4.61,US,1633665983
383,Kahului,20.8947,-156.47,78.82,74,1,18.41,US,1633666057
384,Forio,40.7342,13.8646,62.42,78,50,1.01,IT,1633666058
385,Ascension,30.2169,-90.9001,75.2,92,40,0.0,US,1633666060
386,Atambua,-9.1061,124.8925,87.94,46,23,2.06,ID,1633666061
387,Halifax,44.6453,-63.5724,55.22,95,3,6.82,CA,1633666062
388,Olafsvik,64.8945,-23.7142,43.77,91,100,25.97,IS,1633666064
389,Shelburne,44.0787,-80.2041,60.91,100,98,4.59,CA,1633666065
390,Iqaluit,63.7506,-68.5145,32.7,86,12,11.99,CA,1633666068
391,Wuda,39.4994,106.7117,61.27,49,100,22.41,CN,1633666069
392,Preobrazheniye,42.9019,133.9064,63.07,46,1,4.56,RU,1633666071
393,Atherton,53.5237,-2.4935,59.9,90,97,1.01,GB,1633666072
394,Ballina,-28.8667,153.5667,78.98,67,91,9.75,AU,1633666073
395,Plouzané,48.3833,-4.6167,57.38,100,90,5.75,FR,1633665868
396,Vostok,46.4856,135.8833,51.28,53,7,13.22,RU,1633666076
397,Teknāf,20.8624,92.3058,86.31,71,98,2.35,BD,1633666077
398,Prainha,-1.8,-53.48,82.4,58,43,5.88,BR,1633666079
399,Hadejia,12.4498,10.0444,78.04,41,35,2.71,NG,1633666081
400,Malatya Province,38.5,38.0,33.85,65,0,8.05,TR,1633666082
401,Apolda,51.0167,11.5,52.5,92,5,3.0,DE,1633666083
402,Imbituba,-28.24,-48.6703,64.81,82,26,3.87,BR,1633666085
403,Isangel,-19.55,169.2667,76.06,64,2,12.53,VU,1633666087
404,Christchurch,-43.5333,172.6333,73.6,49,4,4.0,NZ,1633666090
405,Springbok,-29.6643,17.8865,43.47,57,0,3.29,ZA,1633666091
406,Illora,37.2877,-3.8811,60.31,52,2,0.78,ES,1633666093
407,Huari,-9.3333,-77.2333,45.66,90,100,1.19,PE,1633666094
408,Longyearbyen,78.2186,15.6401,17.44,86,0,9.22,SJ,1633666095
409,Lesogorsk,56.0458,99.5136,36.5,92,100,10.74,RU,1633666097
410,Verkhoyansk,67.5447,133.385,36.14,43,100,15.86,RU,1633666098
411,Oblivskaya,48.5362,42.5014,32.99,51,0,9.55,RU,1633666100
412,Flinders,-34.5833,150.8552,75.79,59,64,8.01,AU,1633665880
413,Quatre Cocos,-20.2078,57.7625,72.09,73,46,9.28,MU,1633665861
414,Iwaki,37.05,140.8833,84.78,68,44,3.0,JP,1633666103
415,Aswān,24.0934,32.907,73.85,34,0,8.77,EG,1633665846
416,Kiunga,-6.1219,141.2906,88.52,66,64,2.75,PG,1633665848
417,Rzhev,56.2624,34.3282,33.12,79,0,3.56,RU,1633666107
418,Nemuro,43.3236,145.575,53.38,77,62,8.12,JP,1633666108
419,Fukuechō,32.6881,128.8419,76.89,68,39,6.26,JP,1633666109
420,Vuktyl,63.8567,57.3094,40.33,83,31,14.43,RU,1633666111
421,Corrente,-3.7367,-43.3394,75.04,88,59,5.19,BR,1633666112
422,Nanortalik,60.1432,-45.2371,38.26,59,92,4.5,GL,1633666114
423,Kyren,51.6828,102.1408,38.1,83,97,3.15,RU,1633666115
424,Robertsonpet,12.9667,78.2833,74.12,76,100,11.03,IN,1633666116
425,Padang,-0.9492,100.3543,86.05,63,78,4.68,ID,1633666118
426,Bara,10.3744,10.7288,73.47,90,96,1.34,NG,1633666119
427,Boa Viagem,-5.1275,-39.7322,74.93,84,93,6.44,BR,1633666121
428,Katherine,-14.4667,132.2667,98.92,26,39,5.75,AU,1633666122
429,Killybegs,54.6333,-8.45,61.45,98,100,5.08,IE,1633666124
430,San Andrés,12.5847,-81.7006,84.22,79,40,12.66,CO,1633665853
431,San Luis,-33.295,-66.3356,61.14,47,43,5.1,AR,1633666126
432,Norman Wells,65.282,-126.8329,25.7,97,98,2.48,CA,1633666128
433,Smithers,54.7804,-127.1743,41.32,75,90,11.5,CA,1633666129
434,Ilek,51.5271,53.3831,40.89,57,9,4.12,RU,1633666130
435,Hirara,24.8,125.2833,83.39,71,77,16.73,JP,1633666132
436,Whitefish,48.4111,-114.3376,41.9,63,1,0.0,US,1633666133
437,Angoram,-4.0625,144.0661,93.34,49,45,4.83,PG,1633666135
438,Shache,38.4167,77.2406,69.76,20,0,4.45,CN,1633666136
439,Petropavlovka,50.6114,105.3196,39.42,94,100,3.31,RU,1633666138
440,Chokwé,-24.5333,32.9833,67.59,70,100,6.04,MZ,1633666139
441,Bonthe,7.5264,-12.505,77.85,84,53,3.96,SL,1633666140
442,Muskegon,43.3,-86.1334,67.77,93,90,8.05,US,1633665941
443,Viedma,-40.8135,-62.9967,43.61,54,92,2.68,AR,1633666143
444,Blagoyevo,63.3667,47.9167,43.09,80,86,13.44,RU,1633666145
445,Kisangani,0.5167,25.2,71.37,90,50,1.77,CD,1633666146
446,Belyy Yar,53.6039,91.3903,37.29,87,40,13.42,RU,1633666148
447,San Miguel de Tucumán,-26.8241,-65.2226,64.51,54,22,2.89,AR,1633666149
448,Zhuhai,22.2769,113.5678,78.51,94,75,19.57,CN,1633666150
449,Sibolga,1.7427,98.7792,83.66,68,100,3.33,ID,1633666152
450,Roseburg,43.2165,-123.3417,48.31,87,1,0.0,US,1633666153
451,Polunochnoye,60.8697,60.4153,43.48,59,69,10.8,RU,1633666155
452,Panacan,9.2463,118.4082,85.68,69,100,14.18,PH,1633666156
453,Puerto del Rosario,28.5004,-13.8627,71.35,78,7,11.5,ES,1633666159
454,Goderich,43.7501,-81.7165,65.91,96,100,12.12,CA,1633666160
455,Tilichiki,60.4667,166.1,33.51,50,84,12.03,RU,1633666162
456,Gberia Fotombu,9.8833,-11.1667,70.27,95,90,1.63,SL,1633666163
457,Coripata,-16.3,-67.6,70.61,95,97,2.26,BO,1633666165
458,Kasongo-Lunda,-6.4667,16.8167,69.4,97,63,1.3,CD,1633666166
459,Serramanna,39.4244,8.9244,58.66,73,8,3.94,IT,1633666167
460,Yantal',56.8471,105.2542,37.45,79,100,10.22,RU,1633666169
461,Caceres,39.522,-6.3748,56.8,43,4,2.77,ES,1633666170
462,Lázaro Cárdenas,17.9583,-102.2,79.47,86,83,3.0,MX,1633666171
463,Rodrigues Alves,-7.738,-72.6509,73.54,91,92,1.25,BR,1633666173
464,Guerrero Negro,27.9769,-114.0611,70.39,76,97,17.4,MX,1633666174
465,Ves'yegonsk,58.664,37.2604,35.53,80,0,6.08,RU,1633666175
466,Penzance,50.1186,-5.5371,60.01,91,80,11.74,GB,1633666177
467,Yzeure,46.5644,3.355,46.29,97,8,3.33,FR,1633666178
468,Kirakira,-10.4544,161.9205,85.48,72,94,13.4,SB,1633666180
469,Biloela,-24.4167,150.5,88.7,28,6,3.62,AU,1633666181
470,Muros,42.7762,-9.0603,64.83,74,44,5.61,ES,1633666183
471,Kamphaeng Phet,16.25,99.5,86.22,71,58,1.79,TH,1633666184
472,Mahanoro,-19.9,48.8,68.52,79,74,8.86,MG,1633666185
473,Balabac,7.9868,117.0645,85.44,72,100,11.79,PH,1633666187
474,Wooster,40.8051,-81.9351,68.27,94,90,3.44,US,1633665893
475,Salta,-24.7859,-65.4117,61.09,75,2,1.81,AR,1633666189
476,Namtsy,62.7161,129.6658,35.71,71,100,7.76,RU,1633666191
477,Aquiraz,-3.9014,-38.3911,80.69,85,92,11.32,BR,1633666192
478,Ansalta,42.6894,46.1178,38.91,85,47,3.22,RU,1633666193
479,Pemberton,50.3164,-122.8027,42.1,88,99,3.09,CA,1633666195
480,Price,39.5994,-110.8107,55.72,87,90,10.36,US,1633666196
481,Spassk-Ryazanskiy,54.4072,40.3806,35.85,67,0,0.2,RU,1633666198
482,Paramirim,-13.4425,-42.2389,73.24,47,8,1.63,BR,1633666199
483,Sioux Lookout,50.1001,-91.917,61.92,79,100,8.46,CA,1633666200
484,Sabinópolis,-18.6661,-43.0839,69.01,93,99,1.61,BR,1633666202
485,Culiacán,24.7994,-107.3897,85.68,66,1,4.61,MX,1633665941
486,Lavrentiya,65.5833,-171.0,35.46,89,100,17.02,RU,1633666205
487,Harper,4.375,-7.7169,77.02,89,100,5.68,LR,1633666206
488,Majene,-3.5403,118.9707,81.21,79,99,7.58,ID,1633666208
489,Vardø,70.3705,31.1107,35.8,68,68,27.89,NO,1633666209
490,Lucea,18.451,-78.1736,84.06,79,31,12.62,JM,1633666211
491,Sayula,19.8667,-103.6167,65.21,76,75,1.1,MX,1633666212
492,Seoul,37.5683,126.9778,71.11,73,100,2.75,KR,1633666175
493,Kerema,-7.9631,145.7785,84.0,75,51,8.23,PG,1633666214
494,Guánica,17.9716,-66.908,81.25,86,90,6.89,PR,1633666216
495,Tursunzoda,38.5144,68.2333,59.88,29,6,4.23,TJ,1633666217
496,Taitung City,22.7583,121.1444,86.27,62,75,11.5,TW,1633666219
497,Prince Albert,53.2001,-105.7677,46.8,37,100,5.08,CA,1633666158
498,Mrakovo,52.7161,56.6244,37.26,79,10,4.36,RU,1633666222
499,Dingle,10.9995,122.6711,78.76,87,100,5.28,PH,1633666223
500,Road Town,18.4167,-64.6167,83.19,74,100,19.71,VG,1633666224
501,Emerald,-23.5333,148.1667,88.34,32,1,7.87,AU,1633666226
502,Vao,-22.6667,167.4833,69.76,64,53,13.73,NC,1633666227
503,Saint-Prosper,46.2117,-70.4811,47.68,96,6,2.91,CA,1633666229
504,Newport,51.5877,-2.9984,60.64,94,69,2.59,GB,1633666230
505,Chapleau,47.8405,-83.4034,52.95,83,1,2.77,CA,1633666232
506,Maba,24.6841,113.5984,79.09,69,100,5.48,CN,1633666233
507,Jiuquan,39.7432,98.5174,49.26,37,13,4.23,CN,1633666235
508,Xiazhen,34.8022,117.1117,61.56,84,100,4.38,CN,1633666236
509,Shingū,33.7333,135.9833,77.85,61,75,3.94,JP,1633666238
510,Hasaki,35.7333,140.8333,81.0,78,65,15.03,JP,1633666239
511,Linguère,15.3953,-15.1193,81.61,66,87,7.56,SN,1633666241
512,Ariquemes,-9.9133,-63.0408,74.16,92,93,3.09,BR,1633666242
513,Belaya Gora,68.5333,146.4167,27.64,57,39,7.74,RU,1633666243
514,Paamiut,61.994,-49.6678,35.46,64,0,6.46,GL,1633666245
515,Batagay-Alyta,67.8006,130.4114,28.02,53,92,5.44,RU,1633666247
516,Kalabo,-14.97,22.6814,69.57,32,7,5.7,ZM,1633666249
517,Takoradze,4.8845,-1.7554,75.92,91,58,1.32,GH,1633666250
518,Abonnema,4.7084,6.7931,75.04,93,93,3.36,NG,1633666252
519,Luganville,-15.5333,167.1667,81.1,78,84,12.06,VU,1633666253
520,Moanda,-1.5575,13.2178,69.91,98,99,2.3,GA,1633666255
521,Verkhovazh'ye,60.7472,42.0465,38.79,77,57,9.78,RU,1633666256
522,Zhezkazgan,47.8043,67.7144,38.8,56,1,13.15,KZ,1633666257
523,Province of Mantua,45.1667,10.7833,59.7,86,100,1.01,IT,1633666259
524,Matara,5.9485,80.5353,83.32,76,100,10.98,LK,1633666260
525,Levice,48.2156,18.6071,52.5,61,100,11.27,SK,1633666262
526,Yarmouth,41.7057,-70.2286,63.97,96,1,1.01,US,1633666266
527,Meulaboh,4.1363,96.1285,84.18,66,97,1.45,ID,1633666268
528,Tazovsky,67.4667,78.7,40.44,90,100,14.65,RU,1633666270
529,Nova Borova,50.693,28.6345,34.36,63,7,7.38,UA,1633666271
530,Mwinilunga,-11.7358,24.4293,62.29,49,9,4.27,ZM,1633666274
531,Amahai,-3.3333,128.9167,83.37,72,55,5.1,ID,1633666275
532,Sena Madureira,-9.0656,-68.6569,76.33,70,100,1.9,BR,1633666278
533,Lodja,-3.4833,23.4333,67.93,90,71,0.87,CD,1633666280
534,Vargashi,55.3556,65.8467,40.95,65,1,10.25,RU,1633666282
535,Colón,9.3592,-79.9014,78.37,90,100,1.99,PA,1633666284
536,Amapá,1.0,-52.0,74.34,92,83,4.74,BR,1633666285
537,Medyn',54.9692,35.8586,26.53,83,0,0.67,RU,1633666286
538,Koshurnikovo,54.1667,93.3,32.05,97,100,5.37,RU,1633666289
539,Colac,-38.3333,143.5833,67.15,53,100,13.53,AU,1633666290
540,Rio Grande,-32.035,-52.0986,43.95,71,43,4.65,BR,1633666292
541,Kidal,18.4411,1.4078,80.74,17,26,10.6,ML,1633666293
542,Tignère,7.3667,12.65,64.8,90,100,1.68,CM,1633666295
543,Dongsheng,39.8161,109.9776,51.76,70,100,16.62,CN,1633666296
544,Batticaloa,7.7102,81.6924,84.02,69,91,2.75,LK,1633666297
545,Samarinda,-0.5,117.15,88.09,62,94,5.75,ID,1633666009
546,El Alto,-4.2714,-81.2147,64.31,82,83,18.43,PE,1633666300
547,Neiafu,-18.65,-173.9833,81.28,78,40,9.22,TO,1633666301
548,Ketchikan,55.3422,-131.6461,46.38,93,90,25.32,US,1633666303
549,São José da Coroa Grande,-8.8978,-35.1478,75.24,82,99,6.76,BR,1633666304
550,Lobanovo,57.8595,56.3026,33.71,86,0,11.18,RU,1633666305
551,Barsovo,61.1667,73.1667,41.13,85,100,11.43,RU,1633666307
552,Dandong,40.1292,124.3947,65.14,70,69,4.07,CN,1633666308
553,Kwinana,-32.25,115.7667,67.3,63,95,12.39,AU,1633666310
554,Almaznyy,48.0448,40.045,35.74,62,22,13.91,RU,1633666311
